{
    "success": true, 
    "data": [
        {
            "city": "巴音郭楞州", 
            "city_code": "0", 
            "station": "孔雀公园", 
            "station_code": "1956A", 
            "lng": 86.1472, 
            "lat": 41.7538
        }, 
        {
            "city": "巴音郭楞州", 
            "city_code": "0", 
            "station": "棉纺厂", 
            "station_code": "1957A", 
            "lng": 86.1972, 
            "lat": 41.7166
        }, 
        {
            "city": "巴音郭楞州", 
            "city_code": "0", 
            "station": "经济开发区", 
            "station_code": "1958A", 
            "lng": 86.2357, 
            "lat": 41.7173
        }, 
        {
            "city": "平度市", 
            "city_code": "0", 
            "station": "2号", 
            "station_code": "1972A", 
            "lng": 119.976, 
            "lat": 36.799
        }, 
        {
            "city": "荣成市", 
            "city_code": "0", 
            "station": "山东成山轮胎公司", 
            "station_code": "1980A", 
            "lng": 122.41, 
            "lat": 37.161
        }, 
        {
            "city": "文登市", 
            "city_code": "0", 
            "station": "文登市环保局", 
            "station_code": "1981A", 
            "lng": 122.038, 
            "lat": 37.197
        }, 
        {
            "city": "乳山市", 
            "city_code": "0", 
            "station": "乳山市气象局", 
            "station_code": "1984A", 
            "lng": 121.544, 
            "lat": 36.907
        }, 
        {
            "city": "昆山市", 
            "city_code": "0", 
            "station": "震川中学", 
            "station_code": "1989A", 
            "lng": 120.999, 
            "lat": 31.381
        }, 
        {
            "city": "金坛市", 
            "city_code": "0", 
            "station": "金坛市自来水公司", 
            "station_code": "2005A", 
            "lng": 119.579, 
            "lat": 31.737
        }, 
        {
            "city": "海门市", 
            "city_code": "0", 
            "station": "社会福利院", 
            "station_code": "2009A", 
            "lng": 121.1518, 
            "lat": 31.89708
        }, 
        {
            "city": "义乌市", 
            "city_code": "0", 
            "station": "江东", 
            "station_code": "2014A", 
            "lng": 120.091, 
            "lat": 29.305
        }, 
        {
            "city": "延边朝鲜族自治州", 
            "city_code": "0", 
            "station": "妇幼医院", 
            "station_code": "2237A", 
            "lng": 129.47, 
            "lat": 42.8883
        }, 
        {
            "city": "延边朝鲜族自治州", 
            "city_code": "0", 
            "station": "延边医院", 
            "station_code": "2238A", 
            "lng": 129.5055, 
            "lat": 42.9108
        }, 
        {
            "city": "延边朝鲜族自治州", 
            "city_code": "0", 
            "station": "朝阳川镇医院", 
            "station_code": "2239A", 
            "lng": 129.3964, 
            "lat": 42.8881
        }, 
        {
            "city": "恩施土家族苗族自治州", 
            "city_code": "0", 
            "station": "湖北民院", 
            "station_code": "2454A", 
            "lng": 109.4978, 
            "lat": 30.2981
        }, 
        {
            "city": "恩施土家族苗族自治州", 
            "city_code": "0", 
            "station": "州电力总公司", 
            "station_code": "2455A", 
            "lng": 109.4707, 
            "lat": 30.2798
        }, 
        {
            "city": "阿坝藏族羌族自治州", 
            "city_code": "0", 
            "station": "州农科所(对照点)", 
            "station_code": "2566A", 
            "lng": 102.1879, 
            "lat": 31.914
        }, 
        {
            "city": "阿坝藏族羌族自治州", 
            "city_code": "0", 
            "station": "州监测站", 
            "station_code": "2567A", 
            "lng": 102.224, 
            "lat": 31.9037
        }, 
        {
            "city": "阿坝藏族羌族自治州", 
            "city_code": "0", 
            "station": "马师校", 
            "station_code": "2568A", 
            "lng": 102.2502, 
            "lat": 31.8896
        }, 
        {
            "city": "甘孜藏族自治州", 
            "city_code": "0", 
            "station": "水桥子", 
            "station_code": "2570A", 
            "lng": 101.9603, 
            "lat": 30.0475
        }, 
        {
            "city": "凉山彝族自治州", 
            "city_code": "0", 
            "station": "青龙寺(对照点)", 
            "station_code": "2571A", 
            "lng": 102.3431, 
            "lat": 27.8099
        }, 
        {
            "city": "凉山彝族自治州", 
            "city_code": "0", 
            "station": "邛海宾馆", 
            "station_code": "2572A", 
            "lng": 102.2721, 
            "lat": 27.8415
        }, 
        {
            "city": "凉山彝族自治州", 
            "city_code": "0", 
            "station": "西昌市政府", 
            "station_code": "2573A", 
            "lng": 102.2625, 
            "lat": 27.898
        }, 
        {
            "city": "凉山彝族自治州", 
            "city_code": "0", 
            "station": "凉山州政府", 
            "station_code": "2574A", 
            "lng": 102.2685, 
            "lat": 27.8851
        }, 
        {
            "city": "凉山彝族自治州", 
            "city_code": "0", 
            "station": "长安", 
            "station_code": "2575A", 
            "lng": 102.237, 
            "lat": 27.8914
        }, 
        {
            "city": "黔西南布依族苗族自治州", 
            "city_code": "0", 
            "station": "场坝街", 
            "station_code": "2589A", 
            "lng": 104.9022, 
            "lat": 25.0925
        }, 
        {
            "city": "黔西南布依族苗族自治州", 
            "city_code": "0", 
            "station": "坪东大道", 
            "station_code": "2590A", 
            "lng": 104.8811, 
            "lat": 25.0992
        }, 
        {
            "city": "黔东南苗族侗族自治州", 
            "city_code": "0", 
            "station": "市环境监测站", 
            "station_code": "2591A", 
            "lng": 107.9783, 
            "lat": 26.5747
        }, 
        {
            "city": "黔南布依族苗族自治州", 
            "city_code": "0", 
            "station": "小围寨", 
            "station_code": "2593A", 
            "lng": 107.5228, 
            "lat": 26.2403
        }, 
        {
            "city": "临夏回族自治州", 
            "city_code": "0", 
            "station": "环保局", 
            "station_code": "2667A", 
            "lng": 103.2069, 
            "lat": 35.5993
        }, 
        {
            "city": "临夏回族自治州", 
            "city_code": "0", 
            "station": "建设大厦", 
            "station_code": "2668A", 
            "lng": 103.2417, 
            "lat": 35.6057
        }, 
        {
            "city": "海北藏族自治州", 
            "city_code": "0", 
            "station": "海晏县西海镇", 
            "station_code": "2671A", 
            "lng": 100.9048, 
            "lat": 36.9639
        }, 
        {
            "city": "黄南藏族自治州", 
            "city_code": "0", 
            "station": "同仁县隆务镇", 
            "station_code": "2672A", 
            "lng": 102.0199, 
            "lat": 35.5102
        }, 
        {
            "city": "海南藏族自治州", 
            "city_code": "0", 
            "station": "共和县恰卜恰镇", 
            "station_code": "2673A", 
            "lng": 100.6188, 
            "lat": 36.2866
        }, 
        {
            "city": "果洛藏族自治州", 
            "city_code": "0", 
            "station": "玛沁县大武镇", 
            "station_code": "2674A", 
            "lng": 100.2561, 
            "lat": 34.4714
        }, 
        {
            "city": "玉树藏族自治州", 
            "city_code": "0", 
            "station": "玉树县结古镇", 
            "station_code": "2675A", 
            "lng": 97, 
            "lat": 33.0014
        }, 
        {
            "city": "海西蒙古族藏族自治州", 
            "city_code": "0", 
            "station": "德令哈市", 
            "station_code": "2676A", 
            "lng": 97.3731, 
            "lat": 37.3753
        }, 
        {
            "city": "博尔塔拉蒙古自治州", 
            "city_code": "0", 
            "station": "市党校", 
            "station_code": "2693A", 
            "lng": 82.0485, 
            "lat": 44.8556
        }, 
        {
            "city": "博尔塔拉蒙古自治州", 
            "city_code": "0", 
            "station": "市环保局", 
            "station_code": "2694A", 
            "lng": 82.0806, 
            "lat": 44.8969
        }, 
        {
            "city": "克孜勒苏柯尔克孜自治州", 
            "city_code": "0", 
            "station": "市人民政府", 
            "station_code": "2697A", 
            "lng": 76.1454, 
            "lat": 39.7142
        }, 
        {
            "city": "黔东南苗族侗族自治州", 
            "city_code": "0", 
            "station": "凯里学院", 
            "station_code": "2881A", 
            "lng": 107.8908, 
            "lat": 26.5311
        }, 
        {
            "city": "那曲地区", 
            "city_code": "0", 
            "station": "那曲会议中心", 
            "station_code": "3128A", 
            "lng": 92.0506, 
            "lat": 31.4797
        }, 
        {
            "city": "克孜勒苏柯尔克孜自治州", 
            "city_code": "0", 
            "station": "克州文化中心", 
            "station_code": "3665A", 
            "lng": 76.1658, 
            "lat": 39.7157
        }, 
        {
            "city": "北京市", 
            "city_code": "110000", 
            "station": "万寿西宫", 
            "station_code": "1001A", 
            "lng": 116.366, 
            "lat": 39.8673
        }, 
        {
            "city": "北京市", 
            "city_code": "110000", 
            "station": "定陵(对照点)", 
            "station_code": "1002A", 
            "lng": 116.17, 
            "lat": 40.2865
        }, 
        {
            "city": "北京市", 
            "city_code": "110000", 
            "station": "东四", 
            "station_code": "1003A", 
            "lng": 116.434, 
            "lat": 39.9522
        }, 
        {
            "city": "北京市", 
            "city_code": "110000", 
            "station": "天坛", 
            "station_code": "1004A", 
            "lng": 116.434, 
            "lat": 39.8745
        }, 
        {
            "city": "北京市", 
            "city_code": "110000", 
            "station": "农展馆", 
            "station_code": "1005A", 
            "lng": 116.473, 
            "lat": 39.9716
        }, 
        {
            "city": "北京市", 
            "city_code": "110000", 
            "station": "官园", 
            "station_code": "1006A", 
            "lng": 116.361, 
            "lat": 39.9425
        }, 
        {
            "city": "北京市", 
            "city_code": "110000", 
            "station": "海淀万柳", 
            "station_code": "1007A", 
            "lng": 116.2878, 
            "lat": 39.9611
        }, 
        {
            "city": "北京市", 
            "city_code": "110000", 
            "station": "顺义新城", 
            "station_code": "1008A", 
            "lng": 116.72, 
            "lat": 40.1438
        }, 
        {
            "city": "北京市", 
            "city_code": "110000", 
            "station": "怀柔镇", 
            "station_code": "1009A", 
            "lng": 116.644, 
            "lat": 40.3937
        }, 
        {
            "city": "北京市", 
            "city_code": "110000", 
            "station": "昌平镇", 
            "station_code": "1010A", 
            "lng": 116.23, 
            "lat": 40.1952
        }, 
        {
            "city": "北京市", 
            "city_code": "110000", 
            "station": "奥体中心", 
            "station_code": "1011A", 
            "lng": 116.407, 
            "lat": 40.0031
        }, 
        {
            "city": "北京市", 
            "city_code": "110000", 
            "station": "古城", 
            "station_code": "1012A", 
            "lng": 116.184, 
            "lat": 39.9136
        }, 
        {
            "city": "北京市", 
            "city_code": "110000", 
            "station": "延庆夏都", 
            "station_code": "3281A", 
            "lng": 115.9718, 
            "lat": 40.4529
        }, 
        {
            "city": "北京市", 
            "city_code": "110000", 
            "station": "平谷新城", 
            "station_code": "3417A", 
            "lng": 117.0709, 
            "lat": 40.1465
        }, 
        {
            "city": "北京市", 
            "city_code": "110000", 
            "station": "密云新城", 
            "station_code": "3418A", 
            "lng": 116.8336, 
            "lat": 40.4095
        }, 
        {
            "city": "北京市", 
            "city_code": "110000", 
            "station": "门头沟三家店", 
            "station_code": "3671A", 
            "lng": 116.088, 
            "lat": 39.9726
        }, 
        {
            "city": "北京市", 
            "city_code": "110000", 
            "station": "丰台云岗", 
            "station_code": "3672A", 
            "lng": 116.1541, 
            "lat": 39.8204
        }, 
        {
            "city": "北京市", 
            "city_code": "110000", 
            "station": "通州东关", 
            "station_code": "3673A", 
            "lng": 116.6804, 
            "lat": 39.9081
        }, 
        {
            "city": "北京市", 
            "city_code": "110000", 
            "station": "房山燕山", 
            "station_code": "3674A", 
            "lng": 115.9577, 
            "lat": 39.7603
        }, 
        {
            "city": "北京市", 
            "city_code": "110000", 
            "station": "大兴旧宫", 
            "station_code": "3675A", 
            "lng": 116.4672, 
            "lat": 39.7733
        }, 
        {
            "city": "北京市", 
            "city_code": "110000", 
            "station": "延庆石河营", 
            "station_code": "3694A", 
            "lng": 115.986, 
            "lat": 40.4563
        }, 
        {
            "city": "北京市", 
            "city_code": "110000", 
            "station": "怀柔新城", 
            "station_code": "3695A", 
            "lng": 116.6151, 
            "lat": 40.3053
        }, 
        {
            "city": "北京市", 
            "city_code": "110000", 
            "station": "丰台小屯", 
            "station_code": "3696A", 
            "lng": 116.2545, 
            "lat": 39.8768
        }, 
        {
            "city": "北京市", 
            "city_code": "110000", 
            "station": "密云镇", 
            "station_code": "3697A", 
            "lng": 116.84, 
            "lat": 40.3844
        }, 
        {
            "city": "天津市", 
            "city_code": "120000", 
            "station": "勤俭道", 
            "station_code": "1015A", 
            "lng": 117.145, 
            "lat": 39.1654
        }, 
        {
            "city": "天津市", 
            "city_code": "120000", 
            "station": "大直沽八号路", 
            "station_code": "1017A", 
            "lng": 117.237, 
            "lat": 39.1082
        }, 
        {
            "city": "天津市", 
            "city_code": "120000", 
            "station": "前进道", 
            "station_code": "1018A", 
            "lng": 117.202, 
            "lat": 39.0927
        }, 
        {
            "city": "天津市", 
            "city_code": "120000", 
            "station": "淮河道", 
            "station_code": "1019A", 
            "lng": 117.1837, 
            "lat": 39.2133
        }, 
        {
            "city": "天津市", 
            "city_code": "120000", 
            "station": "跃进路", 
            "station_code": "1021A", 
            "lng": 117.307, 
            "lat": 39.0877
        }, 
        {
            "city": "天津市", 
            "city_code": "120000", 
            "station": "第四大街", 
            "station_code": "1023A", 
            "lng": 117.707, 
            "lat": 39.0343
        }, 
        {
            "city": "天津市", 
            "city_code": "120000", 
            "station": "永明路", 
            "station_code": "1024A", 
            "lng": 117.457, 
            "lat": 38.8394
        }, 
        {
            "city": "天津市", 
            "city_code": "120000", 
            "station": "汉北路", 
            "station_code": "1026A", 
            "lng": 117.764, 
            "lat": 39.1587
        }, 
        {
            "city": "天津市", 
            "city_code": "120000", 
            "station": "团泊洼(对照点)", 
            "station_code": "1027A", 
            "lng": 117.157, 
            "lat": 38.9194
        }, 
        {
            "city": "天津市", 
            "city_code": "120000", 
            "station": "河西一经路", 
            "station_code": "2858A", 
            "lng": 117.7918, 
            "lat": 39.2474
        }, 
        {
            "city": "天津市", 
            "city_code": "120000", 
            "station": "津沽路", 
            "station_code": "2859A", 
            "lng": 117.3747, 
            "lat": 38.9846
        }, 
        {
            "city": "天津市", 
            "city_code": "120000", 
            "station": "宾水西道", 
            "station_code": "2860A", 
            "lng": 117.1589, 
            "lat": 39.0845
        }, 
        {
            "city": "天津市", 
            "city_code": "120000", 
            "station": "大理道", 
            "station_code": "2922A", 
            "lng": 117.1941, 
            "lat": 39.1067
        }, 
        {
            "city": "天津市", 
            "city_code": "120000", 
            "station": "中山北路", 
            "station_code": "3020A", 
            "lng": 117.2101, 
            "lat": 39.1699
        }, 
        {
            "city": "天津市", 
            "city_code": "120000", 
            "station": "西四道", 
            "station_code": "3051A", 
            "lng": 117.3916, 
            "lat": 39.1495
        }, 
        {
            "city": "天津市", 
            "city_code": "120000", 
            "station": "雍阳西道", 
            "station_code": "3325A", 
            "lng": 117.0365, 
            "lat": 39.3828
        }, 
        {
            "city": "天津市", 
            "city_code": "120000", 
            "station": "辛老路", 
            "station_code": "3326A", 
            "lng": 117.0296, 
            "lat": 39.0605
        }, 
        {
            "city": "天津市", 
            "city_code": "120000", 
            "station": "地纬路", 
            "station_code": "3327A", 
            "lng": 116.9638, 
            "lat": 38.9375
        }, 
        {
            "city": "天津市", 
            "city_code": "120000", 
            "station": "北环路", 
            "station_code": "3460A", 
            "lng": 117.4067, 
            "lat": 40.0583
        }, 
        {
            "city": "天津市", 
            "city_code": "120000", 
            "station": "建设路", 
            "station_code": "3461A", 
            "lng": 117.3045, 
            "lat": 39.7169
        }, 
        {
            "city": "天津市", 
            "city_code": "120000", 
            "station": "滨水东路", 
            "station_code": "3462A", 
            "lng": 117.8199, 
            "lat": 39.3521
        }, 
        {
            "city": "石家庄市", 
            "city_code": "130100", 
            "station": "职工医院", 
            "station_code": "1029A", 
            "lng": 114.4422, 
            "lat": 38.0444
        }, 
        {
            "city": "石家庄市", 
            "city_code": "130100", 
            "station": "高新区", 
            "station_code": "1030A", 
            "lng": 114.6063, 
            "lat": 38.0266
        }, 
        {
            "city": "石家庄市", 
            "city_code": "130100", 
            "station": "西北水源", 
            "station_code": "1031A", 
            "lng": 114.5019, 
            "lat": 38.1398
        }, 
        {
            "city": "石家庄市", 
            "city_code": "130100", 
            "station": "西南高教", 
            "station_code": "1032A", 
            "lng": 114.4586111, 
            "lat": 38.00583333
        }, 
        {
            "city": "石家庄市", 
            "city_code": "130100", 
            "station": "世纪公园", 
            "station_code": "1033A", 
            "lng": 114.5330556, 
            "lat": 38.01777778
        }, 
        {
            "city": "石家庄市", 
            "city_code": "130100", 
            "station": "人民会堂", 
            "station_code": "1034A", 
            "lng": 114.509, 
            "lat": 38.0457
        }, 
        {
            "city": "石家庄市", 
            "city_code": "130100", 
            "station": "封龙山(对照点)", 
            "station_code": "1035A", 
            "lng": 114.3524, 
            "lat": 37.8911
        }, 
        {
            "city": "石家庄市", 
            "city_code": "130100", 
            "station": "22中南校区", 
            "station_code": "2862A", 
            "lng": 114.5481, 
            "lat": 38.0378
        }, 
        {
            "city": "石家庄市", 
            "city_code": "130100", 
            "station": "鹿泉一中", 
            "station_code": "3456A", 
            "lng": 114.289, 
            "lat": 38.0906
        }, 
        {
            "city": "石家庄市", 
            "city_code": "130100", 
            "station": "栾城区政府", 
            "station_code": "3572A", 
            "lng": 114.6419615, 
            "lat": 37.9001925
        }, 
        {
            "city": "石家庄市", 
            "city_code": "130100", 
            "station": "藁城区实验学校", 
            "station_code": "3573A", 
            "lng": 114.8506765, 
            "lat": 38.0322033
        }, 
        {
            "city": "石家庄市", 
            "city_code": "130100", 
            "station": "井陉矿区区委大楼", 
            "station_code": "3574A", 
            "lng": 114.0504658, 
            "lat": 38.0591645
        }, 
        {
            "city": "唐山市", 
            "city_code": "130200", 
            "station": "雷达站", 
            "station_code": "1037A", 
            "lng": 118.144, 
            "lat": 39.643
        }, 
        {
            "city": "唐山市", 
            "city_code": "130200", 
            "station": "物资局", 
            "station_code": "1038A", 
            "lng": 118.1853, 
            "lat": 39.6407
        }, 
        {
            "city": "唐山市", 
            "city_code": "130200", 
            "station": "十二中", 
            "station_code": "1040A", 
            "lng": 118.1705, 
            "lat": 39.6506
        }, 
        {
            "city": "唐山市", 
            "city_code": "130200", 
            "station": "小山", 
            "station_code": "1041A", 
            "lng": 118.1997, 
            "lat": 39.6295
        }, 
        {
            "city": "唐山市", 
            "city_code": "130200", 
            "station": "正泰大街热力站", 
            "station_code": "3575A", 
            "lng": 118.09279, 
            "lat": 39.58089
        }, 
        {
            "city": "唐山市", 
            "city_code": "130200", 
            "station": "丰润区政府", 
            "station_code": "3576A", 
            "lng": 118.1562, 
            "lat": 39.8322
        }, 
        {
            "city": "唐山市", 
            "city_code": "130200", 
            "station": "金山小学", 
            "station_code": "3577A", 
            "lng": 118.43673, 
            "lat": 39.73809
        }, 
        {
            "city": "唐山市", 
            "city_code": "130200", 
            "station": "政府服务中心", 
            "station_code": "3578A", 
            "lng": 118.24498, 
            "lat": 39.66941
        }, 
        {
            "city": "唐山市", 
            "city_code": "130200", 
            "station": "消防缸窑路中队", 
            "station_code": "3692A", 
            "lng": 118.2045, 
            "lat": 39.6581
        }, 
        {
            "city": "唐山市", 
            "city_code": "130200", 
            "station": "路南电大", 
            "station_code": "3693A", 
            "lng": 118.1436, 
            "lat": 39.6202
        }, 
        {
            "city": "秦皇岛市", 
            "city_code": "130300", 
            "station": "北戴河环保局", 
            "station_code": "1042A", 
            "lng": 119.5259, 
            "lat": 39.8283
        }, 
        {
            "city": "秦皇岛市", 
            "city_code": "130300", 
            "station": "监测站", 
            "station_code": "1044A", 
            "lng": 119.5897, 
            "lat": 39.9499
        }, 
        {
            "city": "秦皇岛市", 
            "city_code": "130300", 
            "station": "建设大厦", 
            "station_code": "1046A", 
            "lng": 119.5369, 
            "lat": 39.9419
        }, 
        {
            "city": "秦皇岛市", 
            "city_code": "130300", 
            "station": "文明里", 
            "station_code": "3132A", 
            "lng": 119.5966, 
            "lat": 39.938
        }, 
        {
            "city": "邯郸市", 
            "city_code": "130400", 
            "station": "东污水处理厂", 
            "station_code": "1048A", 
            "lng": 114.5426, 
            "lat": 36.6164
        }, 
        {
            "city": "邯郸市", 
            "city_code": "130400", 
            "station": "矿院", 
            "station_code": "1049A", 
            "lng": 114.4918, 
            "lat": 36.5713
        }, 
        {
            "city": "邯郸市", 
            "city_code": "130400", 
            "station": "丛台公园", 
            "station_code": "1050A", 
            "lng": 114.484, 
            "lat": 36.6133
        }, 
        {
            "city": "邯郸市", 
            "city_code": "130400", 
            "station": "香泉濮院小区", 
            "station_code": "3458A", 
            "lng": 114.7895, 
            "lat": 36.5593
        }, 
        {
            "city": "邯郸市", 
            "city_code": "130400", 
            "station": "永年区实验高中", 
            "station_code": "3579A", 
            "lng": 114.50634, 
            "lat": 36.77178
        }, 
        {
            "city": "邯郸市", 
            "city_code": "130400", 
            "station": "峰峰矿区临水派出所", 
            "station_code": "3580A", 
            "lng": 114.20016, 
            "lat": 36.44293
        }, 
        {
            "city": "邢台市", 
            "city_code": "130500", 
            "station": "达活泉", 
            "station_code": "1077A", 
            "lng": 114.4821, 
            "lat": 37.0967
        }, 
        {
            "city": "邢台市", 
            "city_code": "130500", 
            "station": "邢师高专", 
            "station_code": "1078A", 
            "lng": 114.5261, 
            "lat": 37.0533
        }, 
        {
            "city": "邢台市", 
            "city_code": "130500", 
            "station": "路桥公司", 
            "station_code": "1079A", 
            "lng": 114.5237, 
            "lat": 37.0851
        }, 
        {
            "city": "邢台市", 
            "city_code": "130500", 
            "station": "市环保局", 
            "station_code": "1080A", 
            "lng": 114.4725, 
            "lat": 37.0719
        }, 
        {
            "city": "保定市", 
            "city_code": "130600", 
            "station": "游泳馆", 
            "station_code": "1051A", 
            "lng": 115.493, 
            "lat": 38.8632
        }, 
        {
            "city": "保定市", 
            "city_code": "130600", 
            "station": "华电二区", 
            "station_code": "1052A", 
            "lng": 115.5223, 
            "lat": 38.8957
        }, 
        {
            "city": "保定市", 
            "city_code": "130600", 
            "station": "接待中心", 
            "station_code": "1053A", 
            "lng": 115.4713, 
            "lat": 38.9108
        }, 
        {
            "city": "保定市", 
            "city_code": "130600", 
            "station": "地表水厂", 
            "station_code": "1054A", 
            "lng": 115.4612, 
            "lat": 38.8416
        }, 
        {
            "city": "保定市", 
            "city_code": "130600", 
            "station": "胶片厂", 
            "station_code": "1055A", 
            "lng": 115.4323, 
            "lat": 38.8697
        }, 
        {
            "city": "保定市", 
            "city_code": "130600", 
            "station": "监测站", 
            "station_code": "1056A", 
            "lng": 115.5214, 
            "lat": 38.8707
        }, 
        {
            "city": "保定市", 
            "city_code": "130600", 
            "station": "满城区生态环境分局", 
            "station_code": "3581A", 
            "lng": 115.31981, 
            "lat": 38.95208
        }, 
        {
            "city": "保定市", 
            "city_code": "130600", 
            "station": "清苑区第二中学", 
            "station_code": "3582A", 
            "lng": 115.47694, 
            "lat": 38.76408
        }, 
        {
            "city": "保定市", 
            "city_code": "130600", 
            "station": "徐水物探局", 
            "station_code": "3583A", 
            "lng": 115.62909, 
            "lat": 39.02311
        }, 
        {
            "city": "承德市", 
            "city_code": "130800", 
            "station": "铁路", 
            "station_code": "1062A", 
            "lng": 117.9664, 
            "lat": 40.9161
        }, 
        {
            "city": "承德市", 
            "city_code": "130800", 
            "station": "中国银行", 
            "station_code": "1063A", 
            "lng": 117.9392, 
            "lat": 40.9763
        }, 
        {
            "city": "承德市", 
            "city_code": "130800", 
            "station": "开发区", 
            "station_code": "1064A", 
            "lng": 117.963, 
            "lat": 40.9359
        }, 
        {
            "city": "承德市", 
            "city_code": "130800", 
            "station": "文化中心", 
            "station_code": "1065A", 
            "lng": 117.8184, 
            "lat": 40.9733
        }, 
        {
            "city": "承德市", 
            "city_code": "130800", 
            "station": "离宫(对照点)", 
            "station_code": "1066A", 
            "lng": 117.9268, 
            "lat": 41.0026
        }, 
        {
            "city": "沧州市", 
            "city_code": "130900", 
            "station": "沧县城建局", 
            "station_code": "1071A", 
            "lng": 116.8842, 
            "lat": 38.2991
        }, 
        {
            "city": "沧州市", 
            "city_code": "130900", 
            "station": "电视转播站", 
            "station_code": "1072A", 
            "lng": 116.8584, 
            "lat": 38.3254
        }, 
        {
            "city": "沧州市", 
            "city_code": "130900", 
            "station": "市环保局", 
            "station_code": "1073A", 
            "lng": 116.8709, 
            "lat": 38.3228
        }, 
        {
            "city": "沧州市", 
            "city_code": "130900", 
            "station": "河北水利电力学院", 
            "station_code": "3324A", 
            "lng": 116.8136, 
            "lat": 38.3004
        }, 
        {
            "city": "廊坊市", 
            "city_code": "131000", 
            "station": "药材公司", 
            "station_code": "1067A", 
            "lng": 116.6838, 
            "lat": 39.5178
        }, 
        {
            "city": "廊坊市", 
            "city_code": "131000", 
            "station": "开发区", 
            "station_code": "1068A", 
            "lng": 116.7729, 
            "lat": 39.5747
        }, 
        {
            "city": "廊坊市", 
            "city_code": "131000", 
            "station": "北华航天学院", 
            "station_code": "1070A", 
            "lng": 116.7464, 
            "lat": 39.5343
        }, 
        {
            "city": "廊坊市", 
            "city_code": "131000", 
            "station": "河北工业大学", 
            "station_code": "2919A", 
            "lng": 116.7022, 
            "lat": 39.5453
        }, 
        {
            "city": "衡水市", 
            "city_code": "131100", 
            "station": "电机北厂", 
            "station_code": "1074A", 
            "lng": 115.6951, 
            "lat": 37.7575
        }, 
        {
            "city": "衡水市", 
            "city_code": "131100", 
            "station": "市监测站", 
            "station_code": "1075A", 
            "lng": 115.6426, 
            "lat": 37.7379
        }, 
        {
            "city": "衡水市", 
            "city_code": "131100", 
            "station": "市城管局", 
            "station_code": "3188A", 
            "lng": 115.6683, 
            "lat": 37.7217
        }, 
        {
            "city": "衡水市", 
            "city_code": "131100", 
            "station": "地表水厂", 
            "station_code": "3459A", 
            "lng": 115.5989, 
            "lat": 37.5491
        }, 
        {
            "city": "张家口市", 
            "city_code": "131200", 
            "station": "人民公园", 
            "station_code": "1057A", 
            "lng": 114.8985, 
            "lat": 40.8367
        }, 
        {
            "city": "张家口市", 
            "city_code": "131200", 
            "station": "五金库", 
            "station_code": "1059A", 
            "lng": 114.8687, 
            "lat": 40.8042
        }, 
        {
            "city": "张家口市", 
            "city_code": "131200", 
            "station": "世纪豪园", 
            "station_code": "1060A", 
            "lng": 114.8902, 
            "lat": 40.762
        }, 
        {
            "city": "张家口市", 
            "city_code": "131200", 
            "station": "北泵房(对照点)", 
            "station_code": "1061A", 
            "lng": 114.8916, 
            "lat": 40.8661
        }, 
        {
            "city": "张家口市", 
            "city_code": "131200", 
            "station": "烟厂", 
            "station_code": "3131A", 
            "lng": 114.8792, 
            "lat": 40.7903
        }, 
        {
            "city": "张家口市", 
            "city_code": "131200", 
            "station": "青少年活动中心", 
            "station_code": "3323A", 
            "lng": 115.2773, 
            "lat": 40.9724
        }, 
        {
            "city": "雄安新区", 
            "city_code": "131300", 
            "station": "容城县环境保护局", 
            "station_code": "3584A", 
            "lng": 115.8844, 
            "lat": 39.0341
        }, 
        {
            "city": "雄安新区", 
            "city_code": "131300", 
            "station": "河北容城中学", 
            "station_code": "3585A", 
            "lng": 115.8665, 
            "lat": 39.0645
        }, 
        {
            "city": "雄安新区", 
            "city_code": "131300", 
            "station": "安新县民政局", 
            "station_code": "3586A", 
            "lng": 115.923, 
            "lat": 38.9405
        }, 
        {
            "city": "雄安新区", 
            "city_code": "131300", 
            "station": "安新县电力局", 
            "station_code": "3587A", 
            "lng": 115.9324, 
            "lat": 38.9338
        }, 
        {
            "city": "雄安新区", 
            "city_code": "131300", 
            "station": "雄县环境保护局", 
            "station_code": "3588A", 
            "lng": 116.0901, 
            "lat": 38.9816
        }, 
        {
            "city": "雄安新区", 
            "city_code": "131300", 
            "station": "雄县国土资源局", 
            "station_code": "3589A", 
            "lng": 116.1105, 
            "lat": 39.0046
        }, 
        {
            "city": "太原市", 
            "city_code": "140100", 
            "station": "尖草坪", 
            "station_code": "1081A", 
            "lng": 112.522, 
            "lat": 37.8873
        }, 
        {
            "city": "太原市", 
            "city_code": "140100", 
            "station": "上兰(对照点)", 
            "station_code": "1083A", 
            "lng": 112.434, 
            "lat": 38.0108
        }, 
        {
            "city": "太原市", 
            "city_code": "140100", 
            "station": "晋源", 
            "station_code": "1084A", 
            "lng": 112.469, 
            "lat": 37.7124
        }, 
        {
            "city": "太原市", 
            "city_code": "140100", 
            "station": "小店", 
            "station_code": "1085A", 
            "lng": 112.5583, 
            "lat": 37.7394
        }, 
        {
            "city": "太原市", 
            "city_code": "140100", 
            "station": "桃园", 
            "station_code": "1086A", 
            "lng": 112.5369, 
            "lat": 37.8692
        }, 
        {
            "city": "太原市", 
            "city_code": "140100", 
            "station": "坞城", 
            "station_code": "1087A", 
            "lng": 112.57, 
            "lat": 37.8195
        }, 
        {
            "city": "太原市", 
            "city_code": "140100", 
            "station": "南寨", 
            "station_code": "1088A", 
            "lng": 112.549, 
            "lat": 37.9854
        }, 
        {
            "city": "太原市", 
            "city_code": "140100", 
            "station": "金胜", 
            "station_code": "3618A", 
            "lng": 112.4701, 
            "lat": 37.782
        }, 
        {
            "city": "太原市", 
            "city_code": "140100", 
            "station": "坝陵桥", 
            "station_code": "3661A", 
            "lng": 112.5667, 
            "lat": 37.8875
        }, 
        {
            "city": "大同市", 
            "city_code": "140200", 
            "station": "果树场(对照点)", 
            "station_code": "1721A", 
            "lng": 113.3819, 
            "lat": 40.1097
        }, 
        {
            "city": "大同市", 
            "city_code": "140200", 
            "station": "云冈宾馆", 
            "station_code": "1723A", 
            "lng": 113.2994, 
            "lat": 40.0758
        }, 
        {
            "city": "大同市", 
            "city_code": "140200", 
            "station": "大同大学", 
            "station_code": "1724A", 
            "lng": 113.3444, 
            "lat": 40.0917
        }, 
        {
            "city": "大同市", 
            "city_code": "140200", 
            "station": "安家小村", 
            "station_code": "1725A", 
            "lng": 113.2661, 
            "lat": 40.1269
        }, 
        {
            "city": "大同市", 
            "city_code": "140200", 
            "station": "教育学院", 
            "station_code": "1726A", 
            "lng": 113.2711, 
            "lat": 40.0844
        }, 
        {
            "city": "大同市", 
            "city_code": "140200", 
            "station": "大同市卫生学校", 
            "station_code": "3282A", 
            "lng": 113.3397, 
            "lat": 40.0597
        }, 
        {
            "city": "大同市", 
            "city_code": "140200", 
            "station": "云冈站", 
            "station_code": "3565A", 
            "lng": 113.1367, 
            "lat": 40.1122
        }, 
        {
            "city": "大同市", 
            "city_code": "140200", 
            "station": "图书馆", 
            "station_code": "3566A", 
            "lng": 113.1186, 
            "lat": 40.2556
        }, 
        {
            "city": "大同市", 
            "city_code": "140200", 
            "station": "区一中", 
            "station_code": "3567A", 
            "lng": 113.5931, 
            "lat": 40.0461
        }, 
        {
            "city": "大同市", 
            "city_code": "140200", 
            "station": "第二人民医院", 
            "station_code": "3676A", 
            "lng": 113.2802, 
            "lat": 40.0995
        }, 
        {
            "city": "阳泉市", 
            "city_code": "140300", 
            "station": "市中心", 
            "station_code": "1738A", 
            "lng": 113.5753, 
            "lat": 37.8564
        }, 
        {
            "city": "阳泉市", 
            "city_code": "140300", 
            "station": "赛鱼", 
            "station_code": "1739A", 
            "lng": 113.4922, 
            "lat": 37.8792
        }, 
        {
            "city": "阳泉市", 
            "city_code": "140300", 
            "station": "南庄", 
            "station_code": "1740A", 
            "lng": 113.5922, 
            "lat": 37.8561
        }, 
        {
            "city": "阳泉市", 
            "city_code": "140300", 
            "station": "平坦", 
            "station_code": "1742A", 
            "lng": 113.5689, 
            "lat": 37.8694
        }, 
        {
            "city": "阳泉市", 
            "city_code": "140300", 
            "station": "大阳泉", 
            "station_code": "1743A", 
            "lng": 113.5158, 
            "lat": 37.85
        }, 
        {
            "city": "阳泉市", 
            "city_code": "140300", 
            "station": "龙柱", 
            "station_code": "3619A", 
            "lng": 113.617, 
            "lat": 37.8571
        }, 
        {
            "city": "长治市", 
            "city_code": "140400", 
            "station": "审计局", 
            "station_code": "1730A", 
            "lng": 113.0886, 
            "lat": 36.2126
        }, 
        {
            "city": "长治市", 
            "city_code": "140400", 
            "station": "长治八中", 
            "station_code": "1731A", 
            "lng": 113.0844444, 
            "lat": 36.1855
        }, 
        {
            "city": "长治市", 
            "city_code": "140400", 
            "station": "德盛苑", 
            "station_code": "2845A", 
            "lng": 113.1569, 
            "lat": 36.1912
        }, 
        {
            "city": "长治市", 
            "city_code": "140400", 
            "station": "潞城四中", 
            "station_code": "3570A", 
            "lng": 113.235, 
            "lat": 36.3489
        }, 
        {
            "city": "晋城市", 
            "city_code": "140500", 
            "station": "自来水公司", 
            "station_code": "2160A", 
            "lng": 112.85, 
            "lat": 35.5051
        }, 
        {
            "city": "晋城市", 
            "city_code": "140500", 
            "station": "白云商贸", 
            "station_code": "2161A", 
            "lng": 112.835, 
            "lat": 35.4934
        }, 
        {
            "city": "晋城市", 
            "city_code": "140500", 
            "station": "市环保局", 
            "station_code": "2162A", 
            "lng": 112.8564, 
            "lat": 35.4883
        }, 
        {
            "city": "晋城市", 
            "city_code": "140500", 
            "station": "技术学院", 
            "station_code": "2163A", 
            "lng": 112.8664, 
            "lat": 35.4894
        }, 
        {
            "city": "晋城市", 
            "city_code": "140500", 
            "station": "白马寺 (对照点)", 
            "station_code": "2165A", 
            "lng": 112.8453, 
            "lat": 35.546
        }, 
        {
            "city": "晋城市", 
            "city_code": "140500", 
            "station": "泽州一中", 
            "station_code": "3620A", 
            "lng": 112.8271, 
            "lat": 35.4828
        }, 
        {
            "city": "朔州市", 
            "city_code": "140600", 
            "station": "平朔", 
            "station_code": "2166A", 
            "lng": 112.44, 
            "lat": 39.3514
        }, 
        {
            "city": "朔州市", 
            "city_code": "140600", 
            "station": "朔唯", 
            "station_code": "2167A", 
            "lng": 112.4549, 
            "lat": 39.3606
        }, 
        {
            "city": "朔州市", 
            "city_code": "140600", 
            "station": "区政府", 
            "station_code": "2168A", 
            "lng": 112.4258, 
            "lat": 39.3197
        }, 
        {
            "city": "朔州市", 
            "city_code": "140600", 
            "station": "市环保局", 
            "station_code": "2169A", 
            "lng": 112.4072, 
            "lat": 39.3278
        }, 
        {
            "city": "朔州市", 
            "city_code": "140600", 
            "station": "市二中", 
            "station_code": "2170A", 
            "lng": 112.4272, 
            "lat": 39.3681
        }, 
        {
            "city": "朔州市", 
            "city_code": "140600", 
            "station": "一水厂", 
            "station_code": "3571A", 
            "lng": 112.2931, 
            "lat": 39.53
        }, 
        {
            "city": "晋中市", 
            "city_code": "140700", 
            "station": "锦纶小区", 
            "station_code": "2171A", 
            "lng": 112.7549, 
            "lat": 37.7019
        }, 
        {
            "city": "晋中市", 
            "city_code": "140700", 
            "station": "南都小区", 
            "station_code": "2173A", 
            "lng": 112.7306, 
            "lat": 37.7111
        }, 
        {
            "city": "晋中市", 
            "city_code": "140700", 
            "station": "榆次区政府", 
            "station_code": "2174A", 
            "lng": 112.7105, 
            "lat": 37.7087
        }, 
        {
            "city": "晋中市", 
            "city_code": "140700", 
            "station": "榆次三中", 
            "station_code": "2865A", 
            "lng": 112.7194444, 
            "lat": 37.68277778
        }, 
        {
            "city": "运城市", 
            "city_code": "140800", 
            "station": "运城中学", 
            "station_code": "2175A", 
            "lng": 110.9956, 
            "lat": 35.0147
        }, 
        {
            "city": "运城市", 
            "city_code": "140800", 
            "station": "地区技校", 
            "station_code": "2178A", 
            "lng": 110.9686, 
            "lat": 35.0303
        }, 
        {
            "city": "运城市", 
            "city_code": "140800", 
            "station": "水利职院", 
            "station_code": "3667A", 
            "lng": 111.0283, 
            "lat": 35.0547
        }, 
        {
            "city": "运城市", 
            "city_code": "140800", 
            "station": "禹都公园", 
            "station_code": "3670A", 
            "lng": 111.0522, 
            "lat": 35.0439
        }, 
        {
            "city": "忻州市", 
            "city_code": "140900", 
            "station": "开发区", 
            "station_code": "2181A", 
            "lng": 112.7383, 
            "lat": 38.4519
        }, 
        {
            "city": "忻州市", 
            "city_code": "140900", 
            "station": "会展中心", 
            "station_code": "2182A", 
            "lng": 112.7003, 
            "lat": 38.4928
        }, 
        {
            "city": "忻州市", 
            "city_code": "140900", 
            "station": "市政府", 
            "station_code": "3208A", 
            "lng": 112.7283, 
            "lat": 38.4153
        }, 
        {
            "city": "临汾市", 
            "city_code": "141000", 
            "station": "临钢医院", 
            "station_code": "1733A", 
            "lng": 111.5531, 
            "lat": 36.0783
        }, 
        {
            "city": "临汾市", 
            "city_code": "141000", 
            "station": "技工学校", 
            "station_code": "1734A", 
            "lng": 111.5028, 
            "lat": 36.0714
        }, 
        {
            "city": "临汾市", 
            "city_code": "141000", 
            "station": "市委", 
            "station_code": "1736A", 
            "lng": 111.5025, 
            "lat": 36.0875
        }, 
        {
            "city": "临汾市", 
            "city_code": "141000", 
            "station": "唐尧大酒店", 
            "station_code": "3018A", 
            "lng": 111.505, 
            "lat": 36.10139
        }, 
        {
            "city": "临汾市", 
            "city_code": "141000", 
            "station": "城南", 
            "station_code": "3668A", 
            "lng": 111.5036, 
            "lat": 36.0414
        }, 
        {
            "city": "吕梁市", 
            "city_code": "141100", 
            "station": "环保局", 
            "station_code": "2183A", 
            "lng": 111.1406, 
            "lat": 37.5211
        }, 
        {
            "city": "吕梁市", 
            "city_code": "141100", 
            "station": "自来水公司", 
            "station_code": "2185A", 
            "lng": 111.1297, 
            "lat": 37.5136
        }, 
        {
            "city": "吕梁市", 
            "city_code": "141100", 
            "station": "马茂庄小学", 
            "station_code": "2867A", 
            "lng": 111.1283333, 
            "lat": 37.51
        }, 
        {
            "city": "呼和浩特市", 
            "city_code": "150100", 
            "station": "呼市一监", 
            "station_code": "1090A", 
            "lng": 111.6507, 
            "lat": 40.7517
        }, 
        {
            "city": "呼和浩特市", 
            "city_code": "150100", 
            "station": "小召", 
            "station_code": "1091A", 
            "lng": 111.658, 
            "lat": 40.8033
        }, 
        {
            "city": "呼和浩特市", 
            "city_code": "150100", 
            "station": "如意水处理厂", 
            "station_code": "1094A", 
            "lng": 111.7516, 
            "lat": 40.8369
        }, 
        {
            "city": "呼和浩特市", 
            "city_code": "150100", 
            "station": "二十九中", 
            "station_code": "1095A", 
            "lng": 111.7277, 
            "lat": 40.8062
        }, 
        {
            "city": "呼和浩特市", 
            "city_code": "150100", 
            "station": "工大金川校区", 
            "station_code": "1096A", 
            "lng": 111.5512, 
            "lat": 40.7866
        }, 
        {
            "city": "呼和浩特市", 
            "city_code": "150100", 
            "station": "化肥厂生活区", 
            "station_code": "1097A", 
            "lng": 111.717, 
            "lat": 40.7612
        }, 
        {
            "city": "呼和浩特市", 
            "city_code": "150100", 
            "station": "红旗小学", 
            "station_code": "3698A", 
            "lng": 111.5968, 
            "lat": 40.8178
        }, 
        {
            "city": "呼和浩特市", 
            "city_code": "150100", 
            "station": "海东办", 
            "station_code": "3699A", 
            "lng": 111.652, 
            "lat": 40.8389
        }, 
        {
            "city": "包头市", 
            "city_code": "150200", 
            "station": "市环境监测站", 
            "station_code": "1585A", 
            "lng": 109.8756, 
            "lat": 40.6532
        }, 
        {
            "city": "包头市", 
            "city_code": "150200", 
            "station": "包头八中", 
            "station_code": "1587A", 
            "lng": 109.9991, 
            "lat": 40.5842
        }, 
        {
            "city": "包头市", 
            "city_code": "150200", 
            "station": "青山宾馆", 
            "station_code": "1588A", 
            "lng": 109.8538, 
            "lat": 40.6821
        }, 
        {
            "city": "包头市", 
            "city_code": "150200", 
            "station": "惠龙物流", 
            "station_code": "1589A", 
            "lng": 109.8654, 
            "lat": 40.6288
        }, 
        {
            "city": "包头市", 
            "city_code": "150200", 
            "station": "东河鸿龙湾", 
            "station_code": "1590A", 
            "lng": 110.0377, 
            "lat": 40.5546
        }, 
        {
            "city": "包头市", 
            "city_code": "150200", 
            "station": "滨河大厦", 
            "station_code": "3283A", 
            "lng": 109.9154, 
            "lat": 40.5685
        }, 
        {
            "city": "包头市", 
            "city_code": "150200", 
            "station": "包头市委党校", 
            "station_code": "3419A", 
            "lng": 109.9447, 
            "lat": 40.6261
        }, 
        {
            "city": "包头市", 
            "city_code": "150200", 
            "station": "昆区政府", 
            "station_code": "3683A", 
            "lng": 109.8331, 
            "lat": 40.6576
        }, 
        {
            "city": "乌海市", 
            "city_code": "150300", 
            "station": "市林业局", 
            "station_code": "2187A", 
            "lng": 106.8089, 
            "lat": 39.6969
        }, 
        {
            "city": "乌海市", 
            "city_code": "150300", 
            "station": "中海勃湾学校", 
            "station_code": "2188A", 
            "lng": 106.7907, 
            "lat": 39.6667
        }, 
        {
            "city": "乌海市", 
            "city_code": "150300", 
            "station": "海北新区", 
            "station_code": "3284A", 
            "lng": 106.813, 
            "lat": 39.7274
        }, 
        {
            "city": "乌海市", 
            "city_code": "150300", 
            "station": "聚英学校", 
            "station_code": "3621A", 
            "lng": 106.8288, 
            "lat": 39.6778
        }, 
        {
            "city": "赤峰市", 
            "city_code": "150400", 
            "station": "松山一中", 
            "station_code": "1744A", 
            "lng": 118.9233, 
            "lat": 42.2816
        }, 
        {
            "city": "赤峰市", 
            "city_code": "150400", 
            "station": "哈达街", 
            "station_code": "1745A", 
            "lng": 118.9572, 
            "lat": 42.2725
        }, 
        {
            "city": "赤峰市", 
            "city_code": "150400", 
            "station": "天义路", 
            "station_code": "1746A", 
            "lng": 118.8789, 
            "lat": 42.2556
        }, 
        {
            "city": "赤峰市", 
            "city_code": "150400", 
            "station": "银河街", 
            "station_code": "3058A", 
            "lng": 119.2654, 
            "lat": 42.0352
        }, 
        {
            "city": "赤峰市", 
            "city_code": "150400", 
            "station": "桥北物流园区", 
            "station_code": "3286A", 
            "lng": 118.9359, 
            "lat": 42.3147
        }, 
        {
            "city": "通辽市", 
            "city_code": "150500", 
            "station": "艺术职业学校", 
            "station_code": "2191A", 
            "lng": 122.2532, 
            "lat": 43.6801
        }, 
        {
            "city": "通辽市", 
            "city_code": "150500", 
            "station": "老干部活动中心", 
            "station_code": "3706A", 
            "lng": 122.2584, 
            "lat": 43.6333
        }, 
        {
            "city": "通辽市", 
            "city_code": "150500", 
            "station": "东方明珠社区", 
            "station_code": "3708A", 
            "lng": 122.2922, 
            "lat": 43.6189
        }, 
        {
            "city": "鄂尔多斯市", 
            "city_code": "150600", 
            "station": "综合楼", 
            "station_code": "1591A", 
            "lng": 110.0023, 
            "lat": 39.8129
        }, 
        {
            "city": "鄂尔多斯市", 
            "city_code": "150600", 
            "station": "巴音孟克林场办事处", 
            "station_code": "1592A", 
            "lng": 109.9486, 
            "lat": 39.8261
        }, 
        {
            "city": "鄂尔多斯市", 
            "city_code": "150600", 
            "station": "康泽苑", 
            "station_code": "1593A", 
            "lng": 109.7736, 
            "lat": 39.5986
        }, 
        {
            "city": "鄂尔多斯市", 
            "city_code": "150600", 
            "station": "华泰汽车城", 
            "station_code": "1594A", 
            "lng": 109.8119, 
            "lat": 39.5989
        }, 
        {
            "city": "鄂尔多斯市", 
            "city_code": "150600", 
            "station": "奥林花园", 
            "station_code": "1595A", 
            "lng": 109.9734, 
            "lat": 39.7884
        }, 
        {
            "city": "呼伦贝尔市", 
            "city_code": "150700", 
            "station": "区环保局", 
            "station_code": "2192A", 
            "lng": 119.7594, 
            "lat": 49.2261
        }, 
        {
            "city": "呼伦贝尔市", 
            "city_code": "150700", 
            "station": "国华电力东", 
            "station_code": "3061A", 
            "lng": 119.7512, 
            "lat": 49.1577
        }, 
        {
            "city": "巴彦淖尔市", 
            "city_code": "150800", 
            "station": "附二中", 
            "station_code": "2195A", 
            "lng": 107.4212, 
            "lat": 40.761
        }, 
        {
            "city": "巴彦淖尔市", 
            "city_code": "150800", 
            "station": "市环保大楼", 
            "station_code": "2196A", 
            "lng": 107.3715, 
            "lat": 40.7378
        }, 
        {
            "city": "乌兰察布市", 
            "city_code": "150900", 
            "station": "集宁新区", 
            "station_code": "2197A", 
            "lng": 113.1306, 
            "lat": 40.9923
        }, 
        {
            "city": "乌兰察布市", 
            "city_code": "150900", 
            "station": "光明街小学", 
            "station_code": "3034A", 
            "lng": 113.1076, 
            "lat": 41.0385
        }, 
        {
            "city": "乌兰察布市", 
            "city_code": "150900", 
            "station": "北京八中", 
            "station_code": "3285A", 
            "lng": 113.1376, 
            "lat": 40.9509
        }, 
        {
            "city": "乌兰察布市", 
            "city_code": "150900", 
            "station": "市委党校", 
            "station_code": "3421A", 
            "lng": 113.1775, 
            "lat": 40.9779
        }, 
        {
            "city": "兴安盟", 
            "city_code": "152200", 
            "station": "胜华新制药厂", 
            "station_code": "2200A", 
            "lng": 122.0506, 
            "lat": 46.0703
        }, 
        {
            "city": "兴安盟", 
            "city_code": "152200", 
            "station": "科右前旗环保局", 
            "station_code": "2201A", 
            "lng": 121.9462, 
            "lat": 46.0756
        }, 
        {
            "city": "兴安盟", 
            "city_code": "152200", 
            "station": "北滨河", 
            "station_code": "3035A", 
            "lng": 122.0931, 
            "lat": 46.0707
        }, 
        {
            "city": "锡林郭勒盟", 
            "city_code": "152500", 
            "station": "市环保监测站", 
            "station_code": "2202A", 
            "lng": 116.1042, 
            "lat": 43.9317
        }, 
        {
            "city": "锡林郭勒盟", 
            "city_code": "152500", 
            "station": "市政府", 
            "station_code": "2203A", 
            "lng": 116.0781, 
            "lat": 43.9311
        }, 
        {
            "city": "阿拉善盟", 
            "city_code": "152900", 
            "station": "西城区西花园(对照点)", 
            "station_code": "2204A", 
            "lng": 105.6467, 
            "lat": 38.8363
        }, 
        {
            "city": "阿拉善盟", 
            "city_code": "152900", 
            "station": "蒙二幼", 
            "station_code": "2205A", 
            "lng": 105.6985, 
            "lat": 38.8411
        }, 
        {
            "city": "阿拉善盟", 
            "city_code": "152900", 
            "station": "环保局新楼", 
            "station_code": "2206A", 
            "lng": 105.724, 
            "lat": 38.8516
        }, 
        {
            "city": "沈阳市", 
            "city_code": "210100", 
            "station": "森林路(对照点)", 
            "station_code": "1098A", 
            "lng": 123.6836, 
            "lat": 41.9339
        }, 
        {
            "city": "沈阳市", 
            "city_code": "210100", 
            "station": "浑南东路", 
            "station_code": "1099A", 
            "lng": 123.535, 
            "lat": 41.7561
        }, 
        {
            "city": "沈阳市", 
            "city_code": "210100", 
            "station": "新秀街", 
            "station_code": "1100A", 
            "lng": 123.439, 
            "lat": 41.7089
        }, 
        {
            "city": "沈阳市", 
            "city_code": "210100", 
            "station": "东陵路", 
            "station_code": "1102A", 
            "lng": 123.5903, 
            "lat": 41.8411
        }, 
        {
            "city": "沈阳市", 
            "city_code": "210100", 
            "station": "陵东街", 
            "station_code": "1103A", 
            "lng": 123.428, 
            "lat": 41.8472
        }, 
        {
            "city": "沈阳市", 
            "city_code": "210100", 
            "station": "文化路", 
            "station_code": "1104A", 
            "lng": 123.41, 
            "lat": 41.765
        }, 
        {
            "city": "沈阳市", 
            "city_code": "210100", 
            "station": "小河沿", 
            "station_code": "1105A", 
            "lng": 123.478, 
            "lat": 41.7775
        }, 
        {
            "city": "沈阳市", 
            "city_code": "210100", 
            "station": "太原街", 
            "station_code": "1106A", 
            "lng": 123.3997, 
            "lat": 41.7972
        }, 
        {
            "city": "沈阳市", 
            "city_code": "210100", 
            "station": "京沈街", 
            "station_code": "1108A", 
            "lng": 123.3783, 
            "lat": 41.9228
        }, 
        {
            "city": "沈阳市", 
            "city_code": "210100", 
            "station": "沈辽西路", 
            "station_code": "2897A", 
            "lng": 123.2444, 
            "lat": 41.7347
        }, 
        {
            "city": "沈阳市", 
            "city_code": "210100", 
            "station": "裕农路", 
            "station_code": "2900A", 
            "lng": 123.5953, 
            "lat": 41.9086
        }, 
        {
            "city": "大连市", 
            "city_code": "210200", 
            "station": "甘井子", 
            "station_code": "1109A", 
            "lng": 121.61194444, 
            "lat": 38.973888889
        }, 
        {
            "city": "大连市", 
            "city_code": "210200", 
            "station": "周水子", 
            "station_code": "1110A", 
            "lng": 121.565, 
            "lat": 38.9511
        }, 
        {
            "city": "大连市", 
            "city_code": "210200", 
            "station": "星海三站", 
            "station_code": "1111A", 
            "lng": 121.56388889, 
            "lat": 38.885
        }, 
        {
            "city": "大连市", 
            "city_code": "210200", 
            "station": "青泥洼桥", 
            "station_code": "1112A", 
            "lng": 121.63305556, 
            "lat": 38.911944444
        }, 
        {
            "city": "大连市", 
            "city_code": "210200", 
            "station": "傅家庄", 
            "station_code": "1113A", 
            "lng": 121.625, 
            "lat": 38.863888889
        }, 
        {
            "city": "大连市", 
            "city_code": "210200", 
            "station": "七贤岭", 
            "station_code": "1114A", 
            "lng": 121.51805556, 
            "lat": 38.856111111
        }, 
        {
            "city": "大连市", 
            "city_code": "210200", 
            "station": "旅顺", 
            "station_code": "1115A", 
            "lng": 121.25888889, 
            "lat": 38.808055556
        }, 
        {
            "city": "大连市", 
            "city_code": "210200", 
            "station": "金州", 
            "station_code": "1116A", 
            "lng": 121.7481, 
            "lat": 39.1311
        }, 
        {
            "city": "大连市", 
            "city_code": "210200", 
            "station": "开发区", 
            "station_code": "1117A", 
            "lng": 121.7769, 
            "lat": 39.0511
        }, 
        {
            "city": "大连市", 
            "city_code": "210200", 
            "station": "双D港", 
            "station_code": "1118A", 
            "lng": 121.9769, 
            "lat": 39.0631
        }, 
        {
            "city": "鞍山市", 
            "city_code": "210300", 
            "station": "深沟寺", 
            "station_code": "1748A", 
            "lng": 123.044, 
            "lat": 41.1196
        }, 
        {
            "city": "鞍山市", 
            "city_code": "210300", 
            "station": "太阳城", 
            "station_code": "1749A", 
            "lng": 123.011, 
            "lat": 41.0931
        }, 
        {
            "city": "鞍山市", 
            "city_code": "210300", 
            "station": "太平", 
            "station_code": "1750A", 
            "lng": 123.0485, 
            "lat": 41.1442
        }, 
        {
            "city": "鞍山市", 
            "city_code": "210300", 
            "station": "铁西三道街", 
            "station_code": "1751A", 
            "lng": 122.9642, 
            "lat": 41.0971
        }, 
        {
            "city": "鞍山市", 
            "city_code": "210300", 
            "station": "铁西工业园区", 
            "station_code": "1752A", 
            "lng": 122.9481, 
            "lat": 41.0833
        }, 
        {
            "city": "鞍山市", 
            "city_code": "210300", 
            "station": "明达新区", 
            "station_code": "1753A", 
            "lng": 123.0156, 
            "lat": 41.0831
        }, 
        {
            "city": "鞍山市", 
            "city_code": "210300", 
            "station": "千山(对照点)", 
            "station_code": "1754A", 
            "lng": 123.1289, 
            "lat": 41.0228
        }, 
        {
            "city": "抚顺市", 
            "city_code": "210400", 
            "station": "望花区", 
            "station_code": "1755A", 
            "lng": 123.81, 
            "lat": 41.8469
        }, 
        {
            "city": "抚顺市", 
            "city_code": "210400", 
            "station": "顺城区", 
            "station_code": "1756A", 
            "lng": 123.9169, 
            "lat": 41.8828
        }, 
        {
            "city": "抚顺市", 
            "city_code": "210400", 
            "station": "东洲区", 
            "station_code": "1757A", 
            "lng": 124.0383, 
            "lat": 41.8625
        }, 
        {
            "city": "抚顺市", 
            "city_code": "210400", 
            "station": "新抚区", 
            "station_code": "1758A", 
            "lng": 123.9, 
            "lat": 41.8594
        }, 
        {
            "city": "抚顺市", 
            "city_code": "210400", 
            "station": "大伙房水库", 
            "station_code": "1759A", 
            "lng": 124.0972, 
            "lat": 41.8961
        }, 
        {
            "city": "抚顺市", 
            "city_code": "210400", 
            "station": "沈抚新城", 
            "station_code": "1760A", 
            "lng": 123.7117, 
            "lat": 41.8417
        }, 
        {
            "city": "本溪市", 
            "city_code": "210500", 
            "station": "大峪", 
            "station_code": "1761A", 
            "lng": 123.8436, 
            "lat": 41.3283
        }, 
        {
            "city": "本溪市", 
            "city_code": "210500", 
            "station": "溪湖", 
            "station_code": "1762A", 
            "lng": 123.7567, 
            "lat": 41.3325
        }, 
        {
            "city": "本溪市", 
            "city_code": "210500", 
            "station": "彩屯", 
            "station_code": "1763A", 
            "lng": 123.7308, 
            "lat": 41.3047
        }, 
        {
            "city": "本溪市", 
            "city_code": "210500", 
            "station": "东明", 
            "station_code": "1764A", 
            "lng": 123.7669, 
            "lat": 41.2864
        }, 
        {
            "city": "本溪市", 
            "city_code": "210500", 
            "station": "新立屯", 
            "station_code": "1765A", 
            "lng": 123.7989, 
            "lat": 41.2692
        }, 
        {
            "city": "本溪市", 
            "city_code": "210500", 
            "station": "威宁", 
            "station_code": "1766A", 
            "lng": 123.8142, 
            "lat": 41.3472
        }, 
        {
            "city": "丹东市", 
            "city_code": "210600", 
            "station": "江湾东路", 
            "station_code": "1600A", 
            "lng": 124.3303, 
            "lat": 40.0625
        }, 
        {
            "city": "丹东市", 
            "city_code": "210600", 
            "station": "临江后街", 
            "station_code": "1601A", 
            "lng": 124.4256, 
            "lat": 40.1503
        }, 
        {
            "city": "丹东市", 
            "city_code": "210600", 
            "station": "元宝山", 
            "station_code": "1602A", 
            "lng": 124.3933, 
            "lat": 40.1461
        }, 
        {
            "city": "丹东市", 
            "city_code": "210600", 
            "station": "民主桥", 
            "station_code": "1603A", 
            "lng": 124.3633, 
            "lat": 40.1092
        }, 
        {
            "city": "锦州市", 
            "city_code": "210700", 
            "station": "南山", 
            "station_code": "1767A", 
            "lng": 121.1115, 
            "lat": 41.0879
        }, 
        {
            "city": "锦州市", 
            "city_code": "210700", 
            "station": "开发区", 
            "station_code": "1768A", 
            "lng": 121.045, 
            "lat": 40.8333
        }, 
        {
            "city": "锦州市", 
            "city_code": "210700", 
            "station": "百股街道", 
            "station_code": "1769A", 
            "lng": 121.2008, 
            "lat": 41.1219
        }, 
        {
            "city": "锦州市", 
            "city_code": "210700", 
            "station": "天安街道", 
            "station_code": "1770A", 
            "lng": 121.1178, 
            "lat": 41.1222
        }, 
        {
            "city": "锦州市", 
            "city_code": "210700", 
            "station": "北湖公园", 
            "station_code": "1771A", 
            "lng": 121.1303, 
            "lat": 41.1386
        }, 
        {
            "city": "营口市", 
            "city_code": "210800", 
            "station": "镜湖西路", 
            "station_code": "1598A", 
            "lng": 122.215, 
            "lat": 40.6511
        }, 
        {
            "city": "营口市", 
            "city_code": "210800", 
            "station": "西炮台", 
            "station_code": "1599A", 
            "lng": 122.1658, 
            "lat": 40.6789
        }, 
        {
            "city": "营口市", 
            "city_code": "210800", 
            "station": "老边实验中学", 
            "station_code": "3378A", 
            "lng": 122.371, 
            "lat": 40.6771
        }, 
        {
            "city": "营口市", 
            "city_code": "210800", 
            "station": "鲅鱼圈市民活动中心", 
            "station_code": "3379A", 
            "lng": 122.1139, 
            "lat": 40.2278
        }, 
        {
            "city": "阜新市", 
            "city_code": "210900", 
            "station": "工业园区", 
            "station_code": "2207A", 
            "lng": 121.6178, 
            "lat": 41.9967
        }, 
        {
            "city": "阜新市", 
            "city_code": "210900", 
            "station": "长青街", 
            "station_code": "2208A", 
            "lng": 121.6697, 
            "lat": 42.0279
        }, 
        {
            "city": "阜新市", 
            "city_code": "210900", 
            "station": "农业园区", 
            "station_code": "2209A", 
            "lng": 121.6972, 
            "lat": 42.0503
        }, 
        {
            "city": "阜新市", 
            "city_code": "210900", 
            "station": "东苑", 
            "station_code": "2210A", 
            "lng": 121.6722, 
            "lat": 42.0228
        }, 
        {
            "city": "阜新市", 
            "city_code": "210900", 
            "station": "玉龙新城", 
            "station_code": "2211A", 
            "lng": 121.6592, 
            "lat": 42.0486
        }, 
        {
            "city": "辽阳市", 
            "city_code": "211000", 
            "station": "宏伟区", 
            "station_code": "2212A", 
            "lng": 123.2, 
            "lat": 41.1953
        }, 
        {
            "city": "辽阳市", 
            "city_code": "211000", 
            "station": "新华园", 
            "station_code": "2213A", 
            "lng": 123.15, 
            "lat": 41.2553
        }, 
        {
            "city": "辽阳市", 
            "city_code": "211000", 
            "station": "滨河路", 
            "station_code": "2214A", 
            "lng": 123.1761, 
            "lat": 41.2736
        }, 
        {
            "city": "辽阳市", 
            "city_code": "211000", 
            "station": "铁西工业园", 
            "station_code": "2215A", 
            "lng": 123.1417, 
            "lat": 41.2894
        }, 
        {
            "city": "盘锦市", 
            "city_code": "211100", 
            "station": "开发区", 
            "station_code": "1604A", 
            "lng": 122.0247, 
            "lat": 41.1556
        }, 
        {
            "city": "盘锦市", 
            "city_code": "211100", 
            "station": "兴隆台", 
            "station_code": "1605A", 
            "lng": 122.0539, 
            "lat": 41.0903
        }, 
        {
            "city": "铁岭市", 
            "city_code": "211200", 
            "station": "汇工街西", 
            "station_code": "2216A", 
            "lng": 123.8139, 
            "lat": 42.3022
        }, 
        {
            "city": "铁岭市", 
            "city_code": "211200", 
            "station": "水上乐园", 
            "station_code": "2217A", 
            "lng": 123.8831, 
            "lat": 42.2953
        }, 
        {
            "city": "铁岭市", 
            "city_code": "211200", 
            "station": "银州路东段", 
            "station_code": "2218A", 
            "lng": 123.8489, 
            "lat": 42.2864
        }, 
        {
            "city": "铁岭市", 
            "city_code": "211200", 
            "station": "金沙江路北", 
            "station_code": "2219A", 
            "lng": 123.7153, 
            "lat": 42.2217
        }, 
        {
            "city": "朝阳市", 
            "city_code": "211300", 
            "station": "西梁", 
            "station_code": "2220A", 
            "lng": 120.4439, 
            "lat": 41.5931
        }, 
        {
            "city": "朝阳市", 
            "city_code": "211300", 
            "station": "河畔小区", 
            "station_code": "2221A", 
            "lng": 120.4486, 
            "lat": 41.5672
        }, 
        {
            "city": "朝阳市", 
            "city_code": "211300", 
            "station": "八里堡", 
            "station_code": "2222A", 
            "lng": 120.4247, 
            "lat": 41.5647
        }, 
        {
            "city": "朝阳市", 
            "city_code": "211300", 
            "station": "农业园区", 
            "station_code": "2223A", 
            "lng": 120.3939, 
            "lat": 41.615
        }, 
        {
            "city": "葫芦岛市", 
            "city_code": "211400", 
            "station": "龙港区", 
            "station_code": "1607A", 
            "lng": 120.9092, 
            "lat": 40.7136
        }, 
        {
            "city": "葫芦岛市", 
            "city_code": "211400", 
            "station": "化工街", 
            "station_code": "1608A", 
            "lng": 120.8392, 
            "lat": 40.7514
        }, 
        {
            "city": "葫芦岛市", 
            "city_code": "211400", 
            "station": "新区", 
            "station_code": "1609A", 
            "lng": 120.8478, 
            "lat": 40.715
        }, 
        {
            "city": "葫芦岛市", 
            "city_code": "211400", 
            "station": "东城区", 
            "station_code": "1610A", 
            "lng": 120.8631, 
            "lat": 40.7736
        }, 
        {
            "city": "长春市", 
            "city_code": "220100", 
            "station": "食品厂", 
            "station_code": "1119A", 
            "lng": 125.3325, 
            "lat": 43.9166
        }, 
        {
            "city": "长春市", 
            "city_code": "220100", 
            "station": "客车厂", 
            "station_code": "1120A", 
            "lng": 125.2863, 
            "lat": 43.9027
        }, 
        {
            "city": "长春市", 
            "city_code": "220100", 
            "station": "邮电学院", 
            "station_code": "1121A", 
            "lng": 125.2786, 
            "lat": 43.84
        }, 
        {
            "city": "长春市", 
            "city_code": "220100", 
            "station": "劳动公园", 
            "station_code": "1122A", 
            "lng": 125.3649, 
            "lat": 43.8748
        }, 
        {
            "city": "长春市", 
            "city_code": "220100", 
            "station": "园林处", 
            "station_code": "1123A", 
            "lng": 125.325, 
            "lat": 43.8694
        }, 
        {
            "city": "长春市", 
            "city_code": "220100", 
            "station": "净月潭", 
            "station_code": "1124A", 
            "lng": 125.4605, 
            "lat": 43.79
        }, 
        {
            "city": "长春市", 
            "city_code": "220100", 
            "station": "甩湾子(对照点)", 
            "station_code": "1125A", 
            "lng": 125.7194, 
            "lat": 43.515
        }, 
        {
            "city": "长春市", 
            "city_code": "220100", 
            "station": "经开区环卫处", 
            "station_code": "1126A", 
            "lng": 125.417, 
            "lat": 43.8667
        }, 
        {
            "city": "长春市", 
            "city_code": "220100", 
            "station": "高新区管委会", 
            "station_code": "1127A", 
            "lng": 125.25, 
            "lat": 43.8167
        }, 
        {
            "city": "长春市", 
            "city_code": "220100", 
            "station": "岱山公园", 
            "station_code": "1128A", 
            "lng": 125.1761, 
            "lat": 43.8325
        }, 
        {
            "city": "吉林市", 
            "city_code": "220200", 
            "station": "哈达湾", 
            "station_code": "1772A", 
            "lng": 126.555, 
            "lat": 43.8875
        }, 
        {
            "city": "吉林市", 
            "city_code": "220200", 
            "station": "东局子", 
            "station_code": "1773A", 
            "lng": 126.5844, 
            "lat": 43.8358
        }, 
        {
            "city": "吉林市", 
            "city_code": "220200", 
            "station": "电力学院", 
            "station_code": "1774A", 
            "lng": 126.4978, 
            "lat": 43.8228
        }, 
        {
            "city": "吉林市", 
            "city_code": "220200", 
            "station": "江北", 
            "station_code": "1775A", 
            "lng": 126.5786, 
            "lat": 43.8947
        }, 
        {
            "city": "吉林市", 
            "city_code": "220200", 
            "station": "江南公园", 
            "station_code": "1776A", 
            "lng": 126.55, 
            "lat": 43.8256
        }, 
        {
            "city": "吉林市", 
            "city_code": "220200", 
            "station": "丰满(对照点)", 
            "station_code": "1778A", 
            "lng": 126.7061, 
            "lat": 43.7133
        }, 
        {
            "city": "吉林市", 
            "city_code": "220200", 
            "station": "九站", 
            "station_code": "2868A", 
            "lng": 126.4738889, 
            "lat": 43.95305556
        }, 
        {
            "city": "四平市", 
            "city_code": "220300", 
            "station": "一商场", 
            "station_code": "2225A", 
            "lng": 124.3711, 
            "lat": 43.1594
        }, 
        {
            "city": "四平市", 
            "city_code": "220300", 
            "station": "境园", 
            "station_code": "2226A", 
            "lng": 124.388, 
            "lat": 43.193
        }, 
        {
            "city": "四平市", 
            "city_code": "220300", 
            "station": "植物园", 
            "station_code": "3486A", 
            "lng": 124.4036, 
            "lat": 43.1411
        }, 
        {
            "city": "四平市", 
            "city_code": "220300", 
            "station": "世纪城", 
            "station_code": "3713A", 
            "lng": 124.3285, 
            "lat": 43.1726
        }, 
        {
            "city": "辽源市", 
            "city_code": "220400", 
            "station": "环保局", 
            "station_code": "2227A", 
            "lng": 125.1358, 
            "lat": 42.8947
        }, 
        {
            "city": "辽源市", 
            "city_code": "220400", 
            "station": "银鹰制药", 
            "station_code": "3239A", 
            "lng": 125.0829, 
            "lat": 42.9079
        }, 
        {
            "city": "通化市", 
            "city_code": "220500", 
            "station": "光明", 
            "station_code": "2229A", 
            "lng": 125.9361, 
            "lat": 41.7156
        }, 
        {
            "city": "通化市", 
            "city_code": "220500", 
            "station": "铁路", 
            "station_code": "2230A", 
            "lng": 125.9486, 
            "lat": 41.7381
        }, 
        {
            "city": "白山市", 
            "city_code": "220600", 
            "station": "喜丰", 
            "station_code": "2231A", 
            "lng": 126.4047, 
            "lat": 41.9206
        }, 
        {
            "city": "白山市", 
            "city_code": "220600", 
            "station": "环保局", 
            "station_code": "2232A", 
            "lng": 126.4078, 
            "lat": 41.9419
        }, 
        {
            "city": "松原市", 
            "city_code": "220700", 
            "station": "江北", 
            "station_code": "2234A", 
            "lng": 124.8528, 
            "lat": 45.1642
        }, 
        {
            "city": "白城市", 
            "city_code": "220800", 
            "station": "洮北区环保局", 
            "station_code": "2235A", 
            "lng": 122.7911, 
            "lat": 45.6077
        }, 
        {
            "city": "白城市", 
            "city_code": "220800", 
            "station": "市环保局", 
            "station_code": "2236A", 
            "lng": 122.8738, 
            "lat": 45.5725
        }, 
        {
            "city": "哈尔滨市", 
            "city_code": "230100", 
            "station": "岭北(对照点)", 
            "station_code": "1129A", 
            "lng": 126.542, 
            "lat": 45.755
        }, 
        {
            "city": "哈尔滨市", 
            "city_code": "230100", 
            "station": "松北商大", 
            "station_code": "1130A", 
            "lng": 126.561, 
            "lat": 45.8167
        }, 
        {
            "city": "哈尔滨市", 
            "city_code": "230100", 
            "station": "阿城会宁", 
            "station_code": "1131A", 
            "lng": 126.979, 
            "lat": 45.5422
        }, 
        {
            "city": "哈尔滨市", 
            "city_code": "230100", 
            "station": "太平宏伟公园", 
            "station_code": "1133A", 
            "lng": 126.689, 
            "lat": 45.7733
        }, 
        {
            "city": "哈尔滨市", 
            "city_code": "230100", 
            "station": "道外承德广场", 
            "station_code": "1134A", 
            "lng": 126.635, 
            "lat": 45.7667
        }, 
        {
            "city": "哈尔滨市", 
            "city_code": "230100", 
            "station": "香坊红旗大街", 
            "station_code": "1135A", 
            "lng": 126.685, 
            "lat": 45.7319
        }, 
        {
            "city": "哈尔滨市", 
            "city_code": "230100", 
            "station": "动力和平路", 
            "station_code": "1136A", 
            "lng": 126.646, 
            "lat": 45.7258
        }, 
        {
            "city": "哈尔滨市", 
            "city_code": "230100", 
            "station": "道里建国路", 
            "station_code": "1137A", 
            "lng": 126.593, 
            "lat": 45.7478
        }, 
        {
            "city": "哈尔滨市", 
            "city_code": "230100", 
            "station": "平房东轻厂", 
            "station_code": "1138A", 
            "lng": 126.615, 
            "lat": 45.61
        }, 
        {
            "city": "哈尔滨市", 
            "city_code": "230100", 
            "station": "呼兰师专", 
            "station_code": "1139A", 
            "lng": 126.595, 
            "lat": 45.9855
        }, 
        {
            "city": "哈尔滨市", 
            "city_code": "230100", 
            "station": "省农科院", 
            "station_code": "1140A", 
            "lng": 126.6206, 
            "lat": 45.6842
        }, 
        {
            "city": "齐齐哈尔市", 
            "city_code": "230200", 
            "station": "安居小区", 
            "station_code": "1779A", 
            "lng": 123.9305, 
            "lat": 47.3636
        }, 
        {
            "city": "齐齐哈尔市", 
            "city_code": "230200", 
            "station": "中心广场", 
            "station_code": "1780A", 
            "lng": 123.9305, 
            "lat": 47.3386
        }, 
        {
            "city": "齐齐哈尔市", 
            "city_code": "230200", 
            "station": "农牧车辆厂", 
            "station_code": "1781A", 
            "lng": 123.9483, 
            "lat": 47.3227
        }, 
        {
            "city": "齐齐哈尔市", 
            "city_code": "230200", 
            "station": "市环境监测站", 
            "station_code": "1783A", 
            "lng": 123.945, 
            "lat": 47.2988
        }, 
        {
            "city": "齐齐哈尔市", 
            "city_code": "230200", 
            "station": "富区青少年活动中心", 
            "station_code": "3662A", 
            "lng": 123.6333, 
            "lat": 47.2075
        }, 
        {
            "city": "鸡西市", 
            "city_code": "230300", 
            "station": "环保局", 
            "station_code": "2240A", 
            "lng": 130.9762, 
            "lat": 45.3001
        }, 
        {
            "city": "鸡西市", 
            "city_code": "230300", 
            "station": "第一中学", 
            "station_code": "2243A", 
            "lng": 130.9429, 
            "lat": 45.3039
        }, 
        {
            "city": "鸡西市", 
            "city_code": "230300", 
            "station": "欧美日汽修厂", 
            "station_code": "3707A", 
            "lng": 131.0147, 
            "lat": 45.3011
        }, 
        {
            "city": "鸡西市", 
            "city_code": "230300", 
            "station": "市政设施管理处", 
            "station_code": "3709A", 
            "lng": 130.99, 
            "lat": 45.3044
        }, 
        {
            "city": "鹤岗市", 
            "city_code": "230400", 
            "station": "哈啤分公司", 
            "station_code": "2244A", 
            "lng": 130.2659, 
            "lat": 47.3349
        }, 
        {
            "city": "鹤岗市", 
            "city_code": "230400", 
            "station": "斯达机电", 
            "station_code": "2245A", 
            "lng": 130.261, 
            "lat": 47.2753
        }, 
        {
            "city": "鹤岗市", 
            "city_code": "230400", 
            "station": "东山纸板厂", 
            "station_code": "2246A", 
            "lng": 130.3172, 
            "lat": 47.3489
        }, 
        {
            "city": "鹤岗市", 
            "city_code": "230400", 
            "station": "五号水库(对照点)", 
            "station_code": "2247A", 
            "lng": 130.1097, 
            "lat": 47.3382
        }, 
        {
            "city": "双鸭山市", 
            "city_code": "230500", 
            "station": "双合村", 
            "station_code": "2248A", 
            "lng": 131.1638, 
            "lat": 46.6572
        }, 
        {
            "city": "双鸭山市", 
            "city_code": "230500", 
            "station": "南小市", 
            "station_code": "2249A", 
            "lng": 131.1651, 
            "lat": 46.619
        }, 
        {
            "city": "双鸭山市", 
            "city_code": "230500", 
            "station": "环保局", 
            "station_code": "2250A", 
            "lng": 131.1516, 
            "lat": 46.6462
        }, 
        {
            "city": "双鸭山市", 
            "city_code": "230500", 
            "station": "苗圃(对照点)", 
            "station_code": "2251A", 
            "lng": 131.12, 
            "lat": 46.5656
        }, 
        {
            "city": "大庆市", 
            "city_code": "230600", 
            "station": "大同区", 
            "station_code": "1789A", 
            "lng": 124.8354, 
            "lat": 46.0347
        }, 
        {
            "city": "大庆市", 
            "city_code": "230600", 
            "station": "龙凤区", 
            "station_code": "1790A", 
            "lng": 125.129, 
            "lat": 46.533
        }, 
        {
            "city": "大庆市", 
            "city_code": "230600", 
            "station": "红岗区", 
            "station_code": "1791A", 
            "lng": 124.8847, 
            "lat": 46.3991
        }, 
        {
            "city": "大庆市", 
            "city_code": "230600", 
            "station": "萨尔图区", 
            "station_code": "1792A", 
            "lng": 125.1386, 
            "lat": 46.5776
        }, 
        {
            "city": "大庆市", 
            "city_code": "230600", 
            "station": "让胡路区", 
            "station_code": "1793A", 
            "lng": 124.9042, 
            "lat": 46.6215
        }, 
        {
            "city": "大庆市", 
            "city_code": "230600", 
            "station": "萨区政府监测点", 
            "station_code": "3481A", 
            "lng": 125.141, 
            "lat": 46.634
        }, 
        {
            "city": "伊春市", 
            "city_code": "230700", 
            "station": "环保局", 
            "station_code": "2252A", 
            "lng": 128.5159, 
            "lat": 47.4311
        }, 
        {
            "city": "伊春市", 
            "city_code": "230700", 
            "station": "电力嘉园", 
            "station_code": "2253A", 
            "lng": 128.9102, 
            "lat": 47.7412
        }, 
        {
            "city": "伊春市", 
            "city_code": "230700", 
            "station": "汤旺河国家公园(对照点)", 
            "station_code": "2254A", 
            "lng": 129.5029, 
            "lat": 48.471
        }, 
        {
            "city": "伊春市", 
            "city_code": "230700", 
            "station": "中心小学", 
            "station_code": "3342A", 
            "lng": 128.4741, 
            "lat": 47.4346
        }, 
        {
            "city": "伊春市", 
            "city_code": "230700", 
            "station": "检察院", 
            "station_code": "3343A", 
            "lng": 128.6871, 
            "lat": 47.7369
        }, 
        {
            "city": "伊春市", 
            "city_code": "230700", 
            "station": "双子河社区", 
            "station_code": "3344A", 
            "lng": 128.8431, 
            "lat": 47.8474
        }, 
        {
            "city": "伊春市", 
            "city_code": "230700", 
            "station": "美溪镇", 
            "station_code": "3480A", 
            "lng": 129.1368, 
            "lat": 47.6417
        }, 
        {
            "city": "佳木斯市", 
            "city_code": "230800", 
            "station": "佳纺", 
            "station_code": "2255A", 
            "lng": 130.2719, 
            "lat": 46.8025
        }, 
        {
            "city": "佳木斯市", 
            "city_code": "230800", 
            "station": "发电厂", 
            "station_code": "2256A", 
            "lng": 130.3961, 
            "lat": 46.8267
        }, 
        {
            "city": "佳木斯市", 
            "city_code": "230800", 
            "station": "环保局", 
            "station_code": "2257A", 
            "lng": 130.3258, 
            "lat": 46.7975
        }, 
        {
            "city": "佳木斯市", 
            "city_code": "230800", 
            "station": "十一中", 
            "station_code": "2258A", 
            "lng": 130.3648, 
            "lat": 46.8032
        }, 
        {
            "city": "佳木斯市", 
            "city_code": "230800", 
            "station": "四丰(对照点)", 
            "station_code": "2259A", 
            "lng": 130.3794, 
            "lat": 46.7588
        }, 
        {
            "city": "七台河市", 
            "city_code": "230900", 
            "station": "新一中(对照点)", 
            "station_code": "2262A", 
            "lng": 131.0518, 
            "lat": 45.8751
        }, 
        {
            "city": "七台河市", 
            "city_code": "230900", 
            "station": "中波台", 
            "station_code": "3345A", 
            "lng": 131.0577, 
            "lat": 45.7879
        }, 
        {
            "city": "七台河市", 
            "city_code": "230900", 
            "station": "人民广场", 
            "station_code": "3637A", 
            "lng": 131.014, 
            "lat": 45.77
        }, 
        {
            "city": "七台河市", 
            "city_code": "230900", 
            "station": "新建矿广场", 
            "station_code": "3684A", 
            "lng": 130.864, 
            "lat": 45.883
        }, 
        {
            "city": "牡丹江市", 
            "city_code": "231000", 
            "station": "环保大楼", 
            "station_code": "1784A", 
            "lng": 129.61, 
            "lat": 44.561
        }, 
        {
            "city": "牡丹江市", 
            "city_code": "231000", 
            "station": "文化广场", 
            "station_code": "1785A", 
            "lng": 129.6115, 
            "lat": 44.5782
        }, 
        {
            "city": "牡丹江市", 
            "city_code": "231000", 
            "station": "第一医院", 
            "station_code": "1786A", 
            "lng": 129.5902, 
            "lat": 44.5952
        }, 
        {
            "city": "牡丹江市", 
            "city_code": "231000", 
            "station": "机车工厂", 
            "station_code": "1787A", 
            "lng": 129.6459, 
            "lat": 44.6104
        }, 
        {
            "city": "牡丹江市", 
            "city_code": "231000", 
            "station": "第一中学", 
            "station_code": "1788A", 
            "lng": 129.6386, 
            "lat": 44.5462
        }, 
        {
            "city": "黑河市", 
            "city_code": "231100", 
            "station": "交通局", 
            "station_code": "2263A", 
            "lng": 127.4961, 
            "lat": 50.2486
        }, 
        {
            "city": "黑河市", 
            "city_code": "231100", 
            "station": "环保局", 
            "station_code": "2264A", 
            "lng": 127.5144, 
            "lat": 50.2341
        }, 
        {
            "city": "黑河市", 
            "city_code": "231100", 
            "station": "大黑河岛(对照点)", 
            "station_code": "2265A", 
            "lng": 127.5291, 
            "lat": 50.2472
        }, 
        {
            "city": "绥化市", 
            "city_code": "231200", 
            "station": "人和东街", 
            "station_code": "2266A", 
            "lng": 126.9934, 
            "lat": 46.6384
        }, 
        {
            "city": "绥化市", 
            "city_code": "231200", 
            "station": "党政办公中心", 
            "station_code": "2267A", 
            "lng": 126.9636, 
            "lat": 46.6527
        }, 
        {
            "city": "大兴安岭地区", 
            "city_code": "232700", 
            "station": "科技局", 
            "station_code": "2269A", 
            "lng": 124.1069, 
            "lat": 50.4097
        }, 
        {
            "city": "大兴安岭地区", 
            "city_code": "232700", 
            "station": "红旗社区", 
            "station_code": "3663A", 
            "lng": 124.1164, 
            "lat": 50.4278
        }, 
        {
            "city": "上海市", 
            "city_code": "310000", 
            "station": "普陀", 
            "station_code": "1141A", 
            "lng": 121.4, 
            "lat": 31.238
        }, 
        {
            "city": "上海市", 
            "city_code": "310000", 
            "station": "十五厂", 
            "station_code": "1142A", 
            "lng": 121.478, 
            "lat": 31.2036
        }, 
        {
            "city": "上海市", 
            "city_code": "310000", 
            "station": "虹口", 
            "station_code": "1143A", 
            "lng": 121.467, 
            "lat": 31.3008
        }, 
        {
            "city": "上海市", 
            "city_code": "310000", 
            "station": "徐汇上师大", 
            "station_code": "1144A", 
            "lng": 121.412, 
            "lat": 31.1654
        }, 
        {
            "city": "上海市", 
            "city_code": "310000", 
            "station": "杨浦四漂", 
            "station_code": "1145A", 
            "lng": 121.536, 
            "lat": 31.2659
        }, 
        {
            "city": "上海市", 
            "city_code": "310000", 
            "station": "静安监测站", 
            "station_code": "1147A", 
            "lng": 121.425, 
            "lat": 31.2261
        }, 
        {
            "city": "上海市", 
            "city_code": "310000", 
            "station": "浦东川沙", 
            "station_code": "1148A", 
            "lng": 121.703, 
            "lat": 31.1907
        }, 
        {
            "city": "上海市", 
            "city_code": "310000", 
            "station": "浦东新区监测站", 
            "station_code": "1149A", 
            "lng": 121.533, 
            "lat": 31.2284
        }, 
        {
            "city": "上海市", 
            "city_code": "310000", 
            "station": "浦东张江", 
            "station_code": "1150A", 
            "lng": 121.577, 
            "lat": 31.2071
        }, 
        {
            "city": "上海市", 
            "city_code": "310000", 
            "station": "宝山庙行", 
            "station_code": "3265A", 
            "lng": 121.4316, 
            "lat": 31.3322
        }, 
        {
            "city": "上海市", 
            "city_code": "310000", 
            "station": "崇明上实东滩", 
            "station_code": "3266A", 
            "lng": 121.8791, 
            "lat": 31.4662
        }, 
        {
            "city": "上海市", 
            "city_code": "310000", 
            "station": "嘉定南翔", 
            "station_code": "3268A", 
            "lng": 121.3162, 
            "lat": 31.2838
        },